City,Cloudiness,Country,Date,Humidity,Lat,Lng,Max Temp,Wind Speed
Kapaa,75,US,1567656305,70,22.08,-159.32,87.8,18.34
Parrita,0,CR,1567656306,94,9.52,-84.33,71.01,1.12
Aswan,62,EG,1567656306,29,24.09,32.9,80.59,13.85
Hami,44,CN,1567656306,11,42.84,93.51,87.22,2.62
Yulara,0,AU,1567656306,12,-25.24,130.99,84.2,3.36
Ushuaia,0,AR,1567656140,56,-54.81,-68.31,41.0,6.93
Sao Filipe,0,CV,1567656307,88,14.9,-24.5,78.76,11.92
Dakar,20,SN,1567656175,94,14.69,-17.45,80.6,3.36
Sitka,0,US,1567656307,58,37.17,-99.65,73.99,10.0
Matagami,100,NG,1567656307,98,9.67,8.4,68.37,3.42
Qaanaaq,6,GL,1567656307,53,77.48,-69.36,29.19,7.05
Tuktoyaktuk,75,CA,1567656308,81,69.44,-133.03,50.0,12.75
Beringovskiy,100,RU,1567656308,90,63.05,179.32,45.42,2.59
Meulaboh,60,ID,1567656308,84,4.14,96.13,80.54,10.22
Iqaluit,90,CA,1567656191,80,63.75,-68.52,41.0,2.24
Cabo Rojo,0,PR,1567656309,78,18.09,-67.15,82.0,6.02
Bethel,75,US,1567656052,81,60.79,-161.76,55.4,17.22
Castro,0,CL,1567656309,81,-42.48,-73.76,32.0,4.7
Chuy,3,UY,1567656143,73,-33.69,-53.46,43.15,10.83
Victoria,75,BN,1567656272,74,5.28,115.24,91.4,2.24
Avarua,98,CK,1567656309,60,-21.21,-159.78,75.2,16.11
Butaritari,100,KI,1567656309,71,3.07,172.79,84.72,8.43
Zelenets,0,RU,1567656309,89,53.83,48.02,48.23,2.68
Hithadhoo,100,MV,1567656310,78,-0.6,73.08,83.28,14.2
Hilo,75,US,1567656310,69,19.71,-155.08,82.4,4.7
Guadalupe y Calvo,86,MX,1567656310,88,26.09,-106.96,56.22,6.71
Deputatskiy,2,RU,1567656310,39,69.3,139.9,49.31,7.78
Hermanus,3,ZA,1567656311,61,-34.42,19.24,57.0,14.0
Coquimbo,90,CL,1567656311,93,-29.95,-71.34,51.8,4.7
Punta Arenas,75,CL,1567656311,84,-53.16,-70.91,35.6,6.93
Kahului,40,US,1567656089,69,20.89,-156.47,82.4,13.87
Muisne,55,EC,1567656311,87,0.61,-80.02,72.1,15.35
Sinnamary,98,GF,1567656314,82,5.38,-52.96,81.13,21.05
South Venice,20,US,1567656315,79,27.05,-82.42,86.0,10.29
Ziezmariai,20,LT,1567656315,93,54.8,24.45,53.6,3.36
Rikitea,73,PF,1567656021,73,-23.12,-134.97,72.24,8.21
Ostrovnoy,0,RU,1567656315,88,68.05,39.51,48.64,15.68
Bredasdorp,49,ZA,1567656315,86,-34.53,20.04,39.2,4.56
San Patricio,99,PY,1567656315,62,-26.98,-56.83,50.17,9.37
Sabzevar,0,IR,1567656316,43,36.21,57.68,61.08,1.23
Torbay,90,CA,1567656316,93,47.66,-52.73,64.99,10.29
Valparaiso,40,US,1567656316,100,41.47,-87.06,64.4,5.17
Ugoofaaru,30,MV,1567656316,77,5.67,73.0,82.5,7.11
Zabol,0,IR,1567656316,29,31.03,61.49,77.0,33.33
Saint-Philippe,90,CA,1567656317,67,45.36,-73.48,61.0,7.99
Atar,0,MR,1567656317,30,20.52,-13.05,94.49,6.13
Busselton,0,AU,1567656317,56,-33.64,115.35,57.99,8.32
Khatanga,100,RU,1567656317,46,71.98,102.47,41.93,12.68
Vaini,75,IN,1567656317,94,15.34,74.49,77.0,11.41
Swidnica,0,PL,1567656317,81,50.84,16.49,59.0,4.7
Frankfort,1,US,1567656318,82,38.2,-84.87,73.4,5.82
Balabac,23,PH,1567656318,62,7.99,117.06,87.15,7.2
Dudinka,75,RU,1567656318,100,69.41,86.18,48.2,8.95
Severo-Kurilsk,1,RU,1567656318,93,50.68,156.12,49.9,15.52
Kavieng,81,PG,1567656319,74,-2.57,150.8,82.84,9.44
Acapulco,40,MX,1567656319,78,16.86,-99.88,82.4,5.82
Barrow,4,AR,1567656319,87,-38.31,-60.23,32.57,1.83
Puerto Ayora,67,EC,1567656319,94,-0.74,-90.35,69.01,3.0
Varniai,0,LT,1567656320,93,55.74,22.37,55.4,9.17
Port Blair,75,IN,1567656086,88,11.67,92.75,80.6,13.87
Geraldton,75,CA,1567656320,76,49.72,-86.95,53.6,4.7
Bud,75,NO,1567656320,81,62.91,6.91,50.0,5.82
Port Macquarie,0,AU,1567656320,46,-31.43,152.91,77.0,16.11
Cabo San Lucas,5,MX,1567656273,54,22.89,-109.91,84.2,11.41
Ajdabiya,0,LY,1567656320,79,30.75,20.22,78.79,9.75
Seymchan,100,RU,1567656321,86,62.93,152.39,50.77,3.51
Thompson,20,CA,1567656321,80,55.74,-97.86,35.6,2.24
Bastia,0,IT,1567656322,57,44.6,8.98,75.2,5.82
Port Alfred,100,ZA,1567656322,92,-33.59,26.89,57.0,4.0
Arraial do Cabo,100,BR,1567656322,94,-22.97,-42.02,69.27,12.17
Yellowknife,75,CA,1567656322,66,62.45,-114.38,51.8,5.82
Clyde River,90,CA,1567656323,80,70.47,-68.59,41.0,2.24
Albany,1,US,1567656323,82,42.65,-73.75,64.4,11.41
Dikson,100,RU,1567656323,99,73.51,80.55,43.3,19.86
Tautira,40,PF,1567656323,69,-17.73,-149.15,80.6,6.93
Caravelas,2,BR,1567656323,90,-17.73,-39.27,70.03,5.97
Pali,100,IN,1567656324,70,25.77,73.33,86.93,8.46
Nome,1,US,1567656127,83,30.04,-94.42,81.0,3.87
Riyadh,0,SA,1567656034,32,24.63,46.72,82.4,2.04
Alofi,100,NU,1567656069,100,-19.06,-169.92,71.6,23.69
Jamestown,15,AU,1567656324,53,-33.21,138.6,64.25,11.3
Hobyo,100,SO,1567656324,78,5.35,48.53,76.44,18.95
Chapais,40,CA,1567656324,70,49.78,-74.86,46.4,6.93
Rio Cuarto,75,AR,1567656325,36,-33.13,-64.35,46.4,14.99
Along,100,IN,1567656325,92,28.17,94.8,62.14,1.05
Beloha,58,MG,1567656325,97,-25.17,45.06,64.09,4.32
Mana,100,NG,1567656325,81,13.03,5.27,77.05,12.12
San Carlos,100,NI,1567656326,1,11.12,-84.78,70.0,21.0
Hillsborough,20,US,1567656326,68,37.57,-122.38,64.99,9.17
Imbituba,75,BR,1567656326,62,-28.24,-48.67,57.2,9.17
Constitucion,90,MX,1567656326,77,23.99,-104.67,61.0,3.36
Vila,40,IT,1567656327,100,45.18,8.4,66.99,5.82
Balkhash,0,KZ,1567656327,63,46.84,74.98,66.2,13.42
Pangnirtung,39,CA,1567656096,72,66.15,-65.72,35.18,3.74
Alghero,0,IT,1567656327,100,40.56,8.32,62.6,1.12
Tasiilaq,100,GL,1567656328,56,65.61,-37.64,44.6,16.11
Port Moresby,75,PG,1567656328,58,-9.47,147.16,82.4,17.22
San Jose,1,HN,1567656328,51,14.25,-87.96,80.6,6.93
Gornopravdinsk,15,RU,1567656328,94,60.06,69.92,49.24,4.07
Los Llanos de Aridane,2,ES,1567656328,56,28.66,-17.92,71.6,5.82
Mega,56,ET,1567656329,68,4.06,38.32,67.38,20.85
Paamiut,17,GL,1567656329,85,61.99,-49.67,42.29,9.17
Kikwit,78,CD,1567656329,79,-5.04,18.82,74.58,1.72
Filadelfia,97,PY,1567656329,62,-22.35,-60.04,62.0,7.34
Calbuco,0,CL,1567656329,45,-41.77,-73.13,42.8,3.36
Taywarah,0,AF,1567656330,20,33.35,64.42,60.33,8.41
Killam,0,CA,1567656330,81,52.79,-111.86,61.1,5.73
Husavik,100,CA,1567656330,68,50.56,-96.99,64.0,5.01
Petropavlovsk-Kamchatskiy,40,RU,1567656330,49,53.05,158.65,69.8,13.42
Sioux Lookout,75,CA,1567656330,82,50.1,-91.92,57.2,4.7
Havoysund,0,NO,1567656331,81,71.0,24.66,48.2,6.93
Rocha,1,UY,1567656331,88,-34.48,-54.34,34.6,3.53
Ilulissat,100,GL,1567656144,93,69.22,-51.1,37.4,3.65
Luderitz,0,NA,1567656331,93,-26.65,15.16,53.6,11.41
Bogande,98,BF,1567656331,75,12.97,-0.14,76.33,10.67
Norman Wells,40,CA,1567656331,87,65.28,-126.83,51.8,9.17
Lodja,69,CD,1567656332,95,-3.52,23.6,69.11,2.21
Mataura,49,NZ,1567656332,69,-46.19,168.86,53.01,5.01
Bolshaya Glushitsa,0,RU,1567656332,71,50.24,43.59,53.01,1.01
Carolina,40,PR,1567656265,83,18.38,-65.96,82.99,3.36
Port Elizabeth,100,US,1567656333,88,39.31,-74.98,78.8,4.25
Novobirilyussy,0,RU,1567656333,81,56.95,90.69,54.04,2.3
Keti Bandar,100,PK,1567656333,82,24.14,67.45,83.49,13.31
Lavrentiya,100,RU,1567656154,93,65.58,-170.99,45.49,7.27
Nizhniy Baskunchak,0,RU,1567656333,51,48.22,46.83,57.75,7.65
Sokol,100,RU,1567656334,94,59.46,40.11,55.95,7.43
Coahuayana,94,MX,1567656334,92,18.62,-100.35,72.28,2.89
Broken Hill,0,AU,1567656334,7,-31.97,141.45,84.2,21.92
Atuona,27,PF,1567656063,75,-9.8,-139.03,78.83,12.28
Vila Velha,75,BR,1567656334,78,-3.71,-38.6,78.8,13.87
Saint-Augustin,75,CA,1567656088,82,45.63,-73.98,61.0,3.36
Ambilobe,28,MG,1567656335,73,-13.19,49.05,67.04,4.99
Vestmanna,0,FO,1567656335,86,62.16,-7.17,39.2,0.36
Kruisfontein,100,ZA,1567656336,89,-34.0,24.73,53.2,6.6
Salalah,75,OM,1567656336,94,17.01,54.1,78.8,3.36
Manaure,100,CO,1567656336,83,11.78,-72.45,82.57,21.21
Pevek,83,RU,1567656337,82,69.7,170.27,41.05,6.02
Hasaki,75,JP,1567656109,78,35.73,140.83,80.6,4.7
Yeppoon,0,AU,1567656337,7,-23.13,150.74,93.2,5.82
Awbari,0,LY,1567656337,34,26.59,12.77,76.49,7.2
Panjab,0,AF,1567656338,35,34.38,67.02,47.11,4.45
Padinska Skela,0,RS,1567656338,100,44.94,20.43,57.2,2.24
Zatoka,0,PL,1567656338,93,50.04,20.52,53.01,1.12
Port Hueneme,1,US,1567656338,88,34.15,-119.2,82.99,8.05
Hobart,40,AU,1567656339,50,-42.88,147.33,57.99,8.05
Saint-Georges,73,CA,1567656064,100,46.12,-70.67,51.01,8.01
Upernavik,100,GL,1567656339,88,72.79,-56.15,42.34,15.66
Lebu,81,ET,1567656339,90,8.96,38.73,54.57,0.76
Narsaq,0,GL,1567656339,57,60.91,-46.05,41.0,2.24
Kodiak,1,US,1567656056,88,39.95,-94.76,68.0,5.82
Ponta do Sol,100,BR,1567656339,40,-20.63,-46.0,75.43,4.45
Moyale,66,ET,1567656340,77,3.52,39.05,66.45,8.16
Saskylakh,90,RU,1567656340,63,71.97,114.09,36.49,4.85
Laguna,40,BZ,1567656340,88,16.17,-88.94,80.6,4.21
Mar del Plata,0,AR,1567656340,57,-46.43,-67.52,32.37,7.85
Ereymentau,100,KZ,1567656340,62,51.62,73.1,53.23,17.07
Uri,1,IN,1567656341,72,34.09,74.03,67.04,0.4
Lima,90,PE,1567656341,87,-12.06,-77.04,60.8,10.29
Miraflores,40,PE,1567656341,26,-16.39,-71.52,57.2,2.24
Sibolga,76,ID,1567656257,80,1.74,98.78,81.53,8.48
Bolama,99,GW,1567656341,91,11.58,-15.48,76.56,13.69
Ribeira Grande,87,PT,1567656341,76,38.52,-28.7,72.15,11.07
Roald,75,NO,1567656342,76,62.58,6.12,50.0,10.29
Pochutla,5,MX,1567656342,70,15.74,-96.47,84.2,4.5
Zhigansk,58,RU,1567656342,52,66.77,123.37,50.39,8.34
Cape Town,0,ZA,1567656342,62,-33.93,18.42,57.2,26.4
Talnakh,75,RU,1567656343,100,69.49,88.39,48.2,8.95
Serenje,0,ZM,1567656343,60,-13.23,30.22,54.1,5.06
Cowra,0,AU,1567656343,33,-33.84,148.69,70.0,3.0
Russell,1,US,1567656250,69,38.9,-98.86,77.0,9.17
Calderitas,5,MX,1567656343,79,18.55,-88.26,84.2,11.41
Magistralnyy,100,RU,1567656343,74,56.17,107.45,58.62,1.45
Marystown,97,CA,1567656344,96,47.17,-55.16,62.56,7.99
Kushima,75,JP,1567656344,88,31.5,131.29,82.4,5.82
Victoria,75,BN,1567656344,74,5.28,115.24,91.4,2.24
New Norfolk,40,AU,1567656344,50,-42.78,147.06,57.99,8.05
Kysyl-Syr,100,RU,1567656344,90,63.9,122.77,51.2,3.51
Kuusamo,90,FI,1567656344,93,65.96,29.19,51.8,3.36
Bluff,0,AU,1567656345,11,-23.58,149.07,86.68,4.23
Turukhansk,76,RU,1567656345,67,65.8,87.96,51.02,8.5
Owando,95,CG,1567656345,96,-0.49,15.91,70.66,1.66
Cidreira,0,BR,1567656345,72,-30.17,-50.22,47.17,6.17
Rorvik,100,NO,1567656345,93,64.86,11.24,48.99,1.99
Provideniya,75,RU,1567656071,76,64.42,-173.23,53.6,11.18
Izumo,75,JP,1567656346,55,35.37,132.75,89.6,5.82
Lingyuan,89,CN,1567656346,41,41.24,119.4,79.84,3.4
Vao,96,EE,1567656192,96,59.1,26.19,50.77,8.03
Baykit,100,RU,1567656346,78,61.68,96.39,48.86,4.7
Matara,77,BI,1567656346,69,-3.48,29.48,51.92,1.54
Port Hardy,20,CA,1567656150,87,50.7,-127.42,59.0,9.17
Emba,20,CY,1567656347,78,34.81,32.42,73.4,8.05
Okato,100,NZ,1567656347,89,-39.19,173.88,60.01,4.0
Srednekolymsk,94,RU,1567656347,38,67.46,153.71,59.79,10.51
Sisimiut,100,GL,1567656347,88,66.94,-53.67,41.25,6.35
Bandarbeyla,78,SO,1567656347,66,9.49,50.81,76.67,26.89
Koumac,0,NC,1567656348,69,-20.56,164.28,69.72,19.64
Tiksi,4,RU,1567656348,76,71.64,128.87,47.91,12.66
Lipari,40,IT,1567656348,83,38.47,14.95,75.2,1.12
Hambantota,40,LK,1567656348,94,6.12,81.12,82.4,8.05
Gamba,37,CN,1567656348,67,28.28,88.52,45.58,4.29
Sandwick,0,GB,1567656349,79,54.57,-2.89,48.99,5.01
Huarmey,0,PE,1567656349,92,-10.07,-78.15,60.2,11.48
Gopalpur,88,BD,1567656349,72,24.18,89.13,87.22,10.83
Bonthe,87,SL,1567656349,92,7.53,-12.5,76.11,8.79
Saint George,0,GR,1567656193,63,39.45,22.34,66.2,4.7
Hervey Bay,0,AU,1567656350,15,-25.3,152.85,89.6,13.87
Mecca,20,SA,1567656089,60,21.43,39.83,81.76,10.18
Dingle,86,PH,1567656350,63,11.0,122.67,87.45,8.34
Oktyabrskiy,0,RU,1567656350,72,55.61,37.97,61.0,1.21
Touros,40,BR,1567656350,94,-5.2,-35.46,73.4,3.36
Makakilo City,20,US,1567656350,66,21.35,-158.09,87.01,9.17
Vanimo,100,PG,1567656351,77,-2.67,141.3,78.22,3.96
Mahibadhoo,22,MV,1567656339,79,3.78,72.97,82.65,10.25
Killarney,0,AU,1567656351,12,-28.34,152.3,80.01,1.01
Rafsanjan,0,IR,1567656351,25,30.4,55.99,69.72,2.44
Patancheru,75,IN,1567656351,88,17.53,78.27,77.0,11.41
Kaohsiung,75,TW,1567656351,66,22.62,120.31,87.8,12.75
Whitehorse,75,CA,1567656272,51,60.72,-135.06,59.0,5.82
Sfantu Gheorghe,75,RO,1567656352,87,44.65,26.83,62.01,4.7
Xuchang,20,CN,1567656352,42,34.03,113.82,84.2,4.47
Anloga,75,GH,1567656352,94,5.79,0.9,77.0,10.29
Luena,96,AO,1567656352,46,-11.78,19.91,59.53,2.59
Turangi,98,NZ,1567656352,85,-39.0,175.93,56.38,3.0
Champerico,20,MX,1567656353,73,16.38,-93.6,77.0,3.36
Gazli,0,UZ,1567656353,34,40.13,63.45,70.62,6.46
Vardo,1,US,1567656353,64,39.62,-77.74,77.0,4.7
Cherskiy,0,RU,1567656077,32,68.75,161.3,55.83,4.07
Wodonga,40,AU,1567656353,67,-36.12,146.89,61.0,5.82
Kumluca,0,TR,1567656353,68,36.37,30.29,59.16,3.06
Zeya,84,RU,1567656354,53,53.74,127.27,67.74,3.6
Carnarvon,100,ZA,1567656071,72,-30.97,22.13,49.02,17.76
Lompoc,90,US,1567656079,93,34.64,-120.46,66.2,3.36
Chokurdakh,79,RU,1567656354,45,70.62,147.9,50.26,9.86
San Rafael,100,AR,1567656354,35,-34.61,-68.33,42.25,9.19
Marsa Matruh,0,EG,1567656354,70,31.35,27.25,79.33,9.19
Esperance,40,AU,1567656355,58,-33.86,121.89,53.6,16.11
Quatre Cocos,40,MU,1567656355,83,-20.21,57.76,75.0,10.29
Nouadhibou,79,MR,1567656355,65,20.93,-17.03,77.0,10.29
Souillac,0,FR,1567656355,76,45.6,-0.6,57.2,4.7
Villamontes,100,BO,1567656355,49,-21.26,-63.47,62.92,4.63
Moussoro,17,TD,1567656356,69,13.64,16.49,81.55,11.25
Shache,71,CN,1567656356,32,38.42,77.24,77.82,10.02
East London,20,ZA,1567656356,93,-33.02,27.91,55.4,11.41
Leningradskiy,94,RU,1567656356,91,69.38,178.42,39.21,8.63
Hamilton,20,CA,1567656109,81,43.26,-79.87,63.0,8.05
Sao Joao da Barra,93,BR,1567656170,84,-21.64,-41.05,72.15,7.67
Tiarei,40,PF,1567656336,69,-17.53,-149.33,80.6,6.93
Longyearbyen,75,NO,1567656103,79,78.22,15.63,32.0,3.36
Tamiahua,8,MX,1567656357,81,21.28,-97.45,84.21,14.45
Thinadhoo,98,MV,1567656120,79,0.53,72.93,82.61,12.21
Abadan,0,IR,1567656357,35,30.36,48.26,84.2,6.93
Bongandanga,32,CD,1567656357,95,1.51,21.07,69.31,1.28
Tarancon,0,ES,1567656155,55,40.01,-3.01,69.01,17.22
Tapachula,75,MX,1567656357,100,14.91,-92.27,75.2,4.12
Nanortalik,0,GL,1567656358,90,60.14,-45.24,40.99,1.83
Booue,100,GA,1567656358,93,-0.09,11.94,71.92,2.39
Tuatapere,0,NZ,1567656358,69,-46.13,167.69,53.01,5.01
That Phanom,75,TH,1567656358,83,16.94,104.73,78.8,2.24
Nikolskoye,40,RU,1567656358,87,59.7,30.79,54.0,4.47
Soe,90,EE,1567656359,100,57.91,26.05,50.0,2.24
Guerrero Negro,0,MX,1567656359,83,27.97,-114.04,73.2,9.8
Georgetown,20,GY,1567656360,94,6.8,-58.16,75.2,4.7
Katsuura,75,JP,1567656115,88,33.93,134.5,84.2,2.24
Vestmannaeyjar,100,IS,1567656360,90,63.44,-20.27,51.4,13.4
Molchanovo,34,RU,1567656360,86,57.58,83.76,50.39,5.39
Guider,100,CM,1567656360,92,9.93,13.94,70.03,3.62
Bathsheba,20,BB,1567656360,88,13.22,-59.52,80.6,10.29
Cherkasskoye,0,RU,1567656361,81,52.43,47.21,48.39,3.89
Faanui,0,PF,1567656361,81,-16.48,-151.75,78.07,22.93
Batesville,1,US,1567656361,83,35.77,-91.64,82.4,3.6
Businga,91,CD,1567656361,97,3.34,20.89,67.65,0.78
Gonen,20,IL,1567656362,78,33.12,35.65,75.99,4.7
Portland,1,US,1567656116,68,43.66,-70.25,68.0,12.75
Kallaste,90,EE,1567656362,100,58.66,27.16,50.0,2.24
Lagos,100,NG,1567656187,90,6.46,3.39,75.81,8.43
Ahipara,100,NZ,1567656362,100,-35.17,173.16,57.0,46.46
Bellavista,100,MX,1567656363,95,21.56,-104.88,66.0,1.57
Kokopo,100,PG,1567656363,98,-4.34,152.27,71.4,1.72
Harper,1,US,1567656363,48,30.3,-99.24,82.4,9.04
Pangai,90,TO,1567656363,94,-19.8,-174.35,75.2,5.82
Necochea,6,AR,1567656363,66,-38.55,-58.74,41.0,1.99
San Andres,100,PH,1567656364,66,13.32,122.68,86.16,11.16
Kijang,75,KR,1567656364,66,35.24,129.21,87.8,6.93
Sangod,20,IN,1567656364,88,24.93,76.29,82.4,4.43
Khani,40,GE,1567656364,93,41.96,42.96,66.2,1.12
Vaitape,0,PF,1567656364,81,-16.52,-151.75,78.07,22.93
Columbus,1,US,1567656307,58,32.46,-84.99,84.2,8.05
Borujerd,0,IR,1567656365,33,33.89,48.76,60.8,5.82
Gigmoto,68,PH,1567656365,73,13.78,124.39,84.61,6.6
Antsohihy,40,MG,1567656365,72,-14.88,47.99,68.82,12.57
Juba,90,EE,1567656366,100,57.82,26.93,50.0,2.24
Joshimath,100,IN,1567656366,98,30.57,79.57,55.77,3.36
Bambous Virieux,40,MU,1567656366,83,-20.34,57.76,75.0,10.29
Zhuanghe,94,CN,1567656366,63,39.7,122.97,66.99,11.07
Taoudenni,1,ML,1567656367,23,22.68,-3.98,96.92,11.83
Trinidad,78,BO,1567656367,43,-14.83,-64.9,79.05,4.85
Usinsk,0,RU,1567656367,81,66.0,57.56,50.62,13.38
Inta,13,RU,1567656209,75,66.04,60.13,51.97,7.76
Nizhniy Tsasuchey,0,RU,1567656367,60,50.52,115.13,68.88,6.82
Port Lincoln,46,AU,1567656367,65,-34.72,135.86,55.43,26.87
Kaoma,12,ZM,1567656367,45,-14.8,24.8,57.03,6.62
Alugan,90,PH,1567656368,55,12.22,125.48,90.66,7.34
Kenora,100,CA,1567656220,77,49.76,-94.48,60.8,4.94
Tateyama,75,JP,1567656368,62,36.66,137.31,91.0,10.29
Ailigandi,100,PA,1567656368,81,9.23,-78.02,81.73,9.42
Almaznyy,20,RU,1567656368,39,48.03,40.04,66.2,13.42
Mayo,75,CA,1567656368,39,63.59,-135.9,62.6,4.7
Coihaique,0,CL,1567656149,43,-45.58,-72.07,35.6,5.82
Saldanha,0,PT,1567656369,54,41.42,-6.55,61.78,7.14
Landerneau,75,FR,1567656369,81,48.45,-4.26,57.99,8.05
Minna,100,NG,1567656369,92,9.62,6.55,74.22,6.11
Jinchang,32,CN,1567656369,33,38.52,102.19,72.49,5.95
Erenhot,100,CN,1567656369,16,43.65,111.97,80.04,9.42
Axim,100,GH,1567656370,91,4.87,-2.24,75.5,10.4
Mahalapye,0,BW,1567656370,33,-23.11,26.83,59.28,8.21
Airai,40,TL,1567656370,47,-8.93,125.41,82.81,6.33
Pisco,90,PE,1567656370,30,-13.71,-76.2,71.6,12.75
Wajima,75,JP,1567656370,66,37.4,136.9,84.2,3.36
Mezen,100,RU,1567656371,95,65.85,44.24,50.62,4.47
Fallon,1,US,1567656371,38,46.84,-105.12,75.2,9.17
Kafue,0,ZM,1567656371,52,-15.74,28.18,58.31,4.88
Aklavik,90,CA,1567656371,100,68.22,-135.01,51.8,5.82
Elizabeth City,1,US,1567656150,88,36.3,-76.22,80.6,6.6
Ishigaki,75,JP,1567656234,100,24.34,124.16,78.8,24.16
Lazaro Cardenas,90,MX,1567656371,32,28.39,-105.62,80.6,5.82
Mandalgovi,30,MN,1567656372,40,45.76,106.27,71.27,10.87
Nishihara,90,JP,1567656372,69,35.74,139.53,87.01,2.93
Awjilah,0,LY,1567656372,92,29.14,21.3,71.76,8.59
Krasnogorsk,90,RU,1567656372,100,55.82,37.34,61.0,4.47
Putina,89,PE,1567656372,69,-14.91,-69.87,42.38,4.97
Hovd,75,NO,1567656373,100,63.83,10.7,53.01,5.82
Graaff-Reinet,100,ZA,1567656373,74,-32.25,24.53,54.1,9.35
Santa Maria,0,BR,1567656142,48,-16.02,-48.01,62.6,2.24
Toucheng,75,TW,1567656373,94,24.86,121.82,82.0,3.36
Naryan-Mar,94,RU,1567656373,95,67.67,53.09,54.66,7.11
Arroio Grande,8,BR,1567656091,56,-32.24,-53.09,36.0,5.99
Kuopio,0,FI,1567656107,100,62.89,27.68,50.0,6.93
Hirado,75,JP,1567656373,66,33.32,129.49,89.6,3.36
Xalpatlahuac,40,MX,1567656374,98,17.47,-98.62,60.43,3.13
Zelenogorskiy,40,RU,1567656374,93,55.03,87.0,53.6,4.47
Vagay,10,RU,1567656374,88,57.94,69.02,50.01,2.77
Sudzha,88,RU,1567656374,98,51.19,35.27,59.16,5.59
Russkiy Aktash,0,RU,1567656374,87,55.04,52.12,46.4,3.2
Impfondo,99,CD,1567656374,97,1.62,18.06,69.7,1.43
Mahebourg,40,MU,1567656121,83,-20.41,57.7,75.0,10.29
Rabo de Peixe,20,PT,1567656375,72,37.8,-25.58,71.01,9.17
Klaksvik,0,FO,1567656375,86,62.23,-6.59,39.2,4.52
Cururupu,29,BR,1567656375,97,-1.82,-44.87,71.36,2.17
Margate,40,AU,1567656375,50,-43.03,147.26,57.99,8.05
Sistranda,75,NO,1567656376,93,63.73,8.83,53.01,3.36
Vostok,78,RU,1567656376,51,46.45,135.83,76.65,8.32
Paita,0,PE,1567656376,93,-5.09,-81.11,61.57,10.36
Luanda,75,AO,1567656146,100,-8.83,13.24,68.0,1.12
Manitouwadge,98,CA,1567656376,74,49.12,-85.84,51.52,4.23
Evensk,88,RU,1567656376,59,61.92,159.24,52.75,13.58
Anapskaya,0,RU,1567656376,52,44.9,37.38,69.8,8.95
Isangel,40,VU,1567656377,61,-19.55,169.27,77.0,11.41
Glenwood Springs,1,US,1567656377,46,39.55,-107.33,82.4,6.93
Muros,75,ES,1567656377,76,42.77,-9.06,64.99,13.87
Manicore,53,BR,1567656377,57,-5.81,-61.3,80.29,0.43
Puerto Escondido,5,MX,1567656378,70,15.86,-97.07,84.2,3.62
Ketchikan,1,US,1567656378,87,55.34,-131.65,57.2,3.94
Pierre,1,US,1567656178,64,44.37,-100.35,70.0,11.41
Bambanglipuro,15,ID,1567656378,79,-7.95,110.28,74.65,12.64
Chimbote,0,PE,1567656378,91,-9.08,-78.59,60.04,11.23
Oranjestad,40,AW,1567656378,74,12.52,-70.03,84.2,18.34
Nelson Bay,20,AU,1567656379,64,-32.72,152.14,72.0,11.41
Sur,88,OM,1567656379,45,22.57,59.53,87.4,4.05
Loa Janan,42,ID,1567656379,50,-0.58,117.09,90.21,4.03
Kaitangata,94,NZ,1567656379,66,-46.28,169.85,50.0,7.0
Ostersund,100,SE,1567656380,100,63.18,14.64,48.2,14.99
Uporovo,96,RU,1567656380,86,56.31,66.27,50.57,0.94
Homer,1,US,1567656380,66,59.64,-151.54,59.0,6.93
Mopipi,0,BW,1567656380,24,-21.2,24.86,60.22,9.78
Chubbuck,1,US,1567656380,27,42.93,-112.47,81.0,8.05
Fortuna,90,US,1567656381,93,40.6,-124.16,62.01,6.93
Krutinka,1,RU,1567656381,82,56.01,71.51,51.2,6.22
Republic,1,US,1567656381,34,48.65,-118.74,69.01,5.82
Kiri Buru,24,IN,1567656381,80,22.08,85.35,82.95,5.03
Veraval,0,FR,1567656381,93,49.65,0.71,57.2,5.82
Lagoa,0,PT,1567656382,57,37.14,-8.45,75.2,3.36
Auki,65,NG,1567656177,94,12.18,6.51,72.91,7.43
Bilibino,0,RU,1567656382,32,68.06,166.44,49.74,4.79
Praia da Vitoria,75,PT,1567656382,94,38.73,-27.07,68.0,24.74
Uray,5,RU,1567656382,92,60.13,64.8,49.02,3.58
Kangaatsiaq,86,GL,1567656382,80,68.31,-53.46,43.28,9.55
Mabama,34,SL,1567656383,98,8.94,-11.9,71.94,1.43
Itarema,33,BR,1567656383,83,-2.92,-39.92,75.64,9.35
Floro,75,NO,1567656383,76,61.6,5.03,50.0,19.46
Altamira,0,BR,1567656383,94,-3.2,-52.21,73.63,3.27
Letlhakane,0,BW,1567656383,31,-21.42,25.59,57.82,8.01
Leo,100,BF,1567656383,80,11.1,-2.1,74.76,2.28
Biryusinsk,0,RU,1567656384,78,55.96,97.82,53.76,7.36
Shalinskoye,0,RU,1567656384,58,55.72,93.76,57.03,4.05
Calvinia,99,ZA,1567656384,82,-31.47,19.78,47.92,10.38
Samarai,34,PG,1567656384,61,-10.62,150.67,76.04,9.06
Cockburn Town,18,TC,1567656384,82,21.46,-71.14,83.85,18.28
Bahia Honda,22,CU,1567656385,73,22.9,-83.16,83.92,5.26
Karasjok,0,NO,1567656385,87,69.47,25.52,42.8,9.17
Amalapuram,75,IN,1567656385,83,16.58,82.0,82.4,12.75
Ferkessedougou,100,CI,1567656385,91,9.6,-5.2,72.48,3.56
Sotouboua,95,TG,1567656386,86,8.56,0.98,71.63,2.62
Ambon,0,FR,1567656386,93,47.55,-2.56,57.99,5.82
Misratah,0,LY,1567656386,72,32.38,15.09,78.49,13.11
Dunedin,100,NZ,1567656352,81,-45.87,170.5,50.0,21.99
Roros,100,NO,1567656386,100,62.57,11.38,41.0,5.82
Kinkala,81,CG,1567656386,83,-4.35,14.75,71.6,5.06
La Ronge,40,CA,1567656387,87,55.1,-105.3,53.6,5.82
Gat,20,SN,1567656387,94,14.69,-16.54,78.8,3.36
Peniche,0,PT,1567656387,77,39.36,-9.38,64.4,13.87
Taltal,0,CL,1567656387,83,-25.41,-70.49,48.93,3.83
Badvel,75,IN,1567656387,70,14.74,79.07,84.2,11.41
Waingapu,29,ID,1567656388,53,-9.65,120.26,82.16,11.43
Amot,100,NO,1567656388,94,59.57,7.99,46.0,6.71
Vanavara,55,RU,1567656388,78,60.35,102.28,50.88,7.11
Kautokeino,0,NO,1567656388,81,69.01,23.04,38.83,7.23
Paris,0,FR,1567656178,81,48.86,2.35,55.4,4.7
Whitehaven,1,US,1567656153,94,35.03,-90.03,82.0,3.36
Pedasi,100,PA,1567656388,89,7.53,-80.03,75.1,3.78
Half Moon Bay,20,US,1567656389,68,37.46,-122.43,66.99,9.17
Rondonopolis,1,BR,1567656389,28,-16.46,-54.64,80.13,1.95
San Quintin,100,PH,1567656389,80,17.54,120.52,82.23,18.7
Lincoln,0,GB,1567656126,76,53.23,-0.54,51.8,6.93
Ajuchitlan,75,MX,1567656389,88,20.72,-100.02,62.6,4.7
Supe,0,PE,1567656390,91,-10.8,-77.72,60.42,12.1
Sorong,51,ID,1567656390,65,-0.86,131.25,85.15,7.96
Mackay,90,CA,1567656390,93,53.65,-115.58,59.0,5.68
Dongsheng,67,CN,1567656390,60,29.72,112.52,82.34,8.61
Tessalit,64,ML,1567656391,19,20.2,1.01,95.84,2.39
Poum,0,MK,1567656391,76,41.28,20.71,53.6,4.7
Orcopampa,92,PE,1567656391,66,-15.27,-72.34,35.07,2.53
Ushtobe,0,KZ,1567656391,37,45.25,77.98,70.33,7.45
Faya,0,SA,1567656391,64,18.39,42.45,66.2,2.01
Aripuana,29,BR,1567656391,53,-9.17,-60.63,81.64,1.45
Doha,0,QA,1567656392,56,25.29,51.53,95.0,8.05
Wonthaggi,0,AU,1567656392,66,-38.6,145.59,71.01,1.86
Shelburne,1,CA,1567656392,100,44.08,-80.2,59.0,4.88
Zlobin,0,HR,1567656392,52,45.29,14.65,68.0,9.17
Bubaque,93,GW,1567656392,83,11.28,-15.83,79.93,18.79
Aykhal,90,RU,1567656393,100,65.95,111.51,39.2,6.71
Nyahururu,12,KE,1567656393,82,0.03,36.37,59.75,6.33
Sisophon,100,KH,1567656393,80,13.59,102.97,81.53,15.12
Tahe,97,CN,1567656393,75,52.34,124.71,63.15,4.29
Holalkere,100,IN,1567656393,81,14.04,76.18,74.1,20.27
Aljezur,0,PT,1567656394,54,37.31,-8.8,75.0,11.52
Rio Grande,20,BR,1567656099,94,-32.03,-52.1,39.0,5.59
Sept-Iles,90,CA,1567656252,100,50.2,-66.38,55.4,4.7
Tuy Hoa,100,VN,1567656394,58,13.08,109.3,85.4,15.61
Pontes e Lacerda,4,BR,1567656394,41,-15.23,-59.33,81.84,4.54
Oktyabrskoye,20,RU,1567656394,81,56.73,85.44,55.0,2.24
Pasni,10,PK,1567656394,80,25.26,63.48,80.85,3.27
Ouargaye,100,BF,1567656395,88,11.5,0.06,76.02,3.33
Ambanja,4,MG,1567656395,78,-13.68,48.45,75.0,6.76
Inhambane,0,MZ,1567656395,90,-23.87,35.38,59.21,4.72
College,75,US,1567656395,62,64.86,-147.8,59.0,5.82
Lujan,0,AR,1567656395,57,-46.57,-67.67,32.37,7.85
Khilok,42,RU,1567656395,69,51.36,110.46,65.76,1.92
Ziyang,82,CN,1567656396,79,30.12,104.65,75.5,5.44
Buala,41,SB,1567656396,82,-8.15,159.59,80.74,12.71
Leh,0,IN,1567656396,41,34.16,77.58,47.58,2.66
Waipawa,100,NZ,1567656129,84,-39.94,176.59,61.0,6.24
Huntingdon,40,GB,1567656396,87,52.33,-0.18,54.0,10.29
Padang,49,ID,1567656149,84,-0.92,100.36,80.7,16.82
Westport,1,US,1567656161,72,41.14,-73.36,73.99,5.82
Horuphav,0,DK,1567656397,87,54.91,9.9,55.4,6.93
Rawson,16,AR,1567656397,74,-43.3,-65.11,34.5,6.13
Lata,34,IN,1567656397,84,30.78,78.62,48.45,4.18
Krasnoarmeysk,90,RU,1567656397,100,56.12,38.15,61.0,4.47
Nogliki,100,RU,1567656397,95,51.8,143.14,59.12,9.33
Kaeo,100,NZ,1567656398,88,-35.1,173.78,57.0,23.0
Arlit,8,NE,1567656163,24,18.74,7.39,95.08,6.13
Wattegama,93,LK,1567656398,65,7.35,80.68,79.98,7.49
Kavaratti,40,IN,1567656398,78,10.57,72.64,82.4,6.93
Pasighat,92,IN,1567656398,88,28.06,95.33,73.92,1.3
Havelock,20,US,1567656398,88,34.88,-76.9,81.0,5.82
Fort Nelson,20,CA,1567656398,51,58.81,-122.69,60.8,6.93
Elk City,1,US,1567656399,54,35.41,-99.4,82.4,6.93
Vilya,91,RU,1567656399,88,55.25,42.21,48.21,5.86
Sorland,40,NO,1567656399,93,67.67,12.69,44.6,3.36
Aden,33,YE,1567656164,46,12.79,45.03,88.08,6.91
Sola,31,TZ,1567656399,55,-3.17,33.8,66.23,1.77
Amahai,100,ID,1567656400,83,-3.31,129.0,77.43,10.2
Masunga,0,BW,1567656400,29,-20.62,27.45,58.22,8.01
Hofn,0,IS,1567656400,75,64.25,-15.21,29.6,2.62
Aksu,90,KZ,1567656400,81,52.04,76.93,53.6,15.66
Rio Casca,0,BR,1567656401,68,-20.23,-42.65,67.67,3.69
Road Town,20,VG,1567656340,78,18.42,-64.62,82.99,10.29
Port-Gentil,98,GA,1567656401,87,-0.72,8.78,75.64,16.04
Vuktyl,0,RU,1567656401,79,63.86,57.31,49.35,5.46
Lat Yao,99,TH,1567656401,76,15.75,99.79,82.84,2.8
Great Yarmouth,94,GB,1567656402,87,52.61,1.73,53.01,9.17
Borger,20,NL,1567656402,87,52.92,6.79,55.99,14.99
Poquoson,1,US,1567656402,78,37.12,-76.35,81.0,8.05
Celestun,0,MX,1567656403,84,20.87,-90.4,82.92,16.91
Mbuji-Mayi,30,CD,1567656403,72,-6.13,23.6,73.07,2.3
Coihueco,100,CL,1567656403,81,-36.63,-71.83,55.0,6.93
Diu,100,IN,1567656403,97,20.71,70.98,77.32,7.49
Rome,0,IT,1567656383,77,41.89,12.48,69.01,3.36
Alta Floresta,23,BR,1567656403,35,-9.87,-56.08,79.89,3.89
Capoeiras,17,BR,1567656404,96,-8.74,-36.63,65.11,4.07
Yenagoa,89,NG,1567656404,94,4.92,6.26,74.38,2.62
Presidente Epitacio,47,BR,1567656404,75,-21.76,-52.12,71.54,4.7
Aras,75,ES,1567656404,67,42.56,-2.36,62.6,11.41
Mount Gambier,75,AU,1567656404,68,-37.83,140.78,66.2,16.11
Codrington,0,AU,1567656404,16,-28.95,153.24,87.8,5.82
Manaus,20,BR,1567656405,88,-3.13,-59.98,82.4,1.12
Tamandare,100,BR,1567656405,98,-8.28,-70.75,70.68,3.09
Severobaykalsk,100,RU,1567656405,54,55.65,109.32,55.86,6.69
San Isidro,0,CR,1567656405,94,10.02,-84.06,71.01,1.12
Ancud,0,CL,1567656406,70,-41.87,-73.83,32.0,4.7
North Bend,1,US,1567656406,82,43.41,-124.22,63.0,4.7
Aqtobe,0,KZ,1567656108,87,50.28,57.21,48.2,8.95
Mount Isa,0,AU,1567656406,13,-20.73,139.49,89.6,11.41
Conakry,100,GN,1567656406,88,9.52,-13.7,78.72,13.78
Hongjiang,0,CN,1567656407,59,27.21,109.83,80.86,4.85
Tianpeng,54,CN,1567656407,63,28.88,112.34,82.38,6.58
Santa Rosa,100,AR,1567656407,43,-36.62,-64.29,39.32,8.14
Maldonado,75,UY,1567656407,65,-34.91,-54.96,46.4,16.11
Pocao de Pedras,0,BR,1567656407,86,-4.67,-44.85,74.33,3.71
Datong,0,CN,1567656407,29,40.09,113.3,75.66,3.74
Rancho Palos Verdes,1,US,1567656408,57,33.75,-118.37,84.2,5.7
Qaqortoq,0,GL,1567656179,57,60.72,-46.03,41.0,2.24
Nagato,75,JP,1567656408,78,34.35,131.14,87.8,12.75
Fukue,75,JP,1567656408,74,35.03,136.69,91.0,14.99
Muzhi,23,RU,1567656408,81,65.4,64.7,51.72,7.61
Bainbridge,1,US,1567656409,69,30.9,-84.58,82.99,3.36
Qandala,0,SO,1567656409,53,11.47,49.87,87.87,24.72
Mitsamiouli,20,KM,1567656409,83,-11.38,43.28,71.6,6.93
Skoropuskovskiy,90,RU,1567656409,100,56.37,38.17,57.2,4.47
Marrakesh,0,MA,1567656410,77,31.63,-7.99,66.2,6.93
Didao,67,CN,1567656410,72,45.35,130.84,71.63,13.56
Yamada,75,JP,1567656410,62,36.58,137.08,91.0,10.29
Belmonte,0,PT,1567656410,52,40.36,-7.35,72.0,10.04
Itoman,90,JP,1567656410,83,26.12,127.67,82.4,21.92
Kuito,41,AO,1567656411,41,-12.38,16.94,56.15,2.77
Ulaanbaatar,75,MN,1567656411,55,47.92,106.92,64.4,2.24
Saint-Pierre,0,FR,1567656411,93,48.95,4.24,53.6,5.82
Choa Saidan Shah,91,PK,1567656411,57,32.72,72.98,88.57,10.4
Tura,54,RU,1567656411,49,64.27,100.22,43.26,14.81
Rock Sound,0,BS,1567656411,84,24.9,-76.2,83.51,12.59
Stolin,0,BY,1567656412,88,51.89,26.85,51.47,2.64
Denpasar,20,ID,1567656168,78,-8.65,115.22,78.8,6.93
Catuday,100,PH,1567656412,79,16.29,119.81,83.71,21.99
Broome,52,GB,1567656412,87,52.47,1.45,53.01,9.17
Pueblo Nuevo,20,AR,1567656413,37,-32.93,-68.73,50.0,4.7
Maniago,0,IT,1567656413,76,46.17,12.71,63.0,4.56
Sao Jose da Coroa Grande,58,BR,1567656413,95,-8.9,-35.15,69.65,3.33
Lander,1,US,1567656241,29,42.83,-108.73,78.8,5.82
Traverse City,1,US,1567656285,93,44.76,-85.62,52.0,3.0
Kendari,50,ID,1567656413,45,-3.99,122.52,90.39,3.94
Te Anau,44,NZ,1567656314,83,-45.41,167.72,44.94,1.92
Menomonie,1,US,1567656414,93,44.88,-91.92,57.99,3.89
Bontang,52,ID,1567656413,52,0.12,117.47,88.89,4.63
Kathu,100,ZA,1567656414,19,-27.7,23.05,54.53,3.69
